{"lastModified":1771360977463,"uri":"c::10095349510::vessel::349cb0b0-da35-11ee-8245-e95259226a68","yachtType":["Sailing","Catamaran"],"description":"Operating Area: Grenada, Martinique, St. Vincent, Guadeloupe, Antigua, St. Martin\n\nSCARLETT is a 11.33m / 37ft Catamaran Luxury Yacht built in 2023 by Excess Catamarans. She has 6 cabins and can accommodate for up to 12 guests including the crew.","blueprint":{"name":"SCARLETT ","images":["/media/media::image::c::10095349510::vessel::349cb0b0-da35-11ee-8245-e95259226a68::assets::c15391c0-da37-11ee-8245-e95259226a68.jpeg/{imageVariant}","/media/media::image::c::10095349510::vessel::349cb0b0-da35-11ee-8245-e95259226a68::assets::e656d1d0-da37-11ee-8245-e95259226a68.jpeg/{imageVariant}","/media/media::image::c::10095349510::vessel::349cb0b0-da35-11ee-8245-e95259226a68::assets::e657e340-da37-11ee-8245-e95259226a68.jpeg/{imageVariant}","/media/media::image::c::10095349510::vessel::349cb0b0-da35-11ee-8245-e95259226a68::assets::e94cb940-da37-11ee-8245-e95259226a68.jpeg/{imageVariant}"],"make":"Excess Catamarans","model":"Excess 11","sleeps":12,"basePort":{"uri":"a::place::e0eadd40-5803-11f0-b374-cb7c06504a89","name":"Grenada Yacht Club","coordinates":{"latitude":12.0469447367258,"longitude":-61.74819020045917},"country":"Grenada"},"builtYear":2023,"cabins":6,"bathrooms":2,"length":11.33,"beam":6.59,"draft":1.15,"hullType":"Catamaran","amenities":[{"label":"Electric toilet"},{"label":"Autopilot"},{"label":"Solar panels"},{"label":"Inverter"},{"label":"Heating "},{"label":"Plotter"}],"entertainment":["Cockpit speakers"]},"crew":[],"pricing":{"weekPricingFrom":{"currency":"EUR","price":434800,"displayCurrency":"EUR","displayPrice":434800,"unit":"WEEK"},"weekPricingTo":{"currency":"EUR","price":736400,"displayCurrency":"EUR","displayPrice":736400,"unit":"WEEK"},"pricingInfo":[{"name":"6.12 - 31.01 & 01.11 - 06.12","effectiveDates":[{"from":"2024-12-06T00:00:00.000Z","to":"2025-01-31T23:59:59.999Z"},{"from":"2025-12-06T00:00:00.000Z","to":"2026-01-31T23:59:59.999Z"},{"from":"2026-12-06T00:00:00.000Z","to":"2027-01-31T23:59:59.999Z"},{"from":"2024-11-01T00:00:00.000Z","to":"2024-12-06T23:59:59.999Z"},{"from":"2025-11-01T00:00:00.000Z","to":"2025-12-06T23:59:59.999Z"},{"from":"2026-11-01T00:00:00.000Z","to":"2026-12-06T23:59:59.999Z"}],"pricing":{"currency":"EUR","charterFee":736400,"inputAmountTaxed":"NONE","note":"","unit":"WEEK","lineItems":[{"item":"Charter Fee","quantity":1,"unitPrice":736400,"amount":736400}],"total":736400,"subTotal":736400,"totalTax":0},"inclusionZones":[{"label":"Grenada","type":"Sovereign country","category":["North America","Caribbean","Grenada"],"coordinates":[-61.682201888919685,12.11725043947459],"bbox":[-61.782177734375,12.008447265624994,-61.60703124999999,12.237011718749997]},{"label":"Martinique","type":"Geo unit","category":["North America","Caribbean","Martinique"],"coordinates":[-61.02100535627902,14.658030130120972],"bbox":[-61.2197265625,14.42626953125,-60.82626953124999,14.875292968750003]},{"label":"Saint Vincent","type":"Custom Area","category":["West Indies","Saint Vincent"],"coordinates":[-61.20720374257252,13.27021162342139],"bbox":[-61.29509070648227,13.180277015184123,-61.11931677866276,13.360141087929032]},{"label":"Guadeloupe","type":"Geo unit","category":["North America","Caribbean","Guadeloupe"],"coordinates":[-61.47423111619004,16.176202525655302],"bbox":[-61.794091796874994,15.886035156250003,-61.172607421875,16.506640625000003]},{"label":"Antigua","type":"Custom Area","category":["West Indies","Antigua"],"coordinates":[-61.775929328510024,17.04059813621117],"bbox":[-61.865400516588366,16.95066275737162,-61.68645814043168,17.13052683011653]},{"label":"St-Martin","type":"Dependency","category":["North America","Caribbean","St-Martin"],"coordinates":[-63.05972851444495,18.088886109462265],"bbox":[-63.123046875,18.06894531249999,-63.009423828124994,18.11533203124999]}],"exclusionZones":[],"petsAllowed":false},{"name":"01.02 - 01.03","effectiveDates":[{"from":"2024-02-01T00:00:00.000Z","to":"2024-03-01T23:59:59.999Z"},{"from":"2025-02-01T00:00:00.000Z","to":"2025-03-01T23:59:59.999Z"},{"from":"2026-02-01T00:00:00.000Z","to":"2026-03-01T23:59:59.999Z"}],"pricing":{"currency":"EUR","charterFee":665500,"inputAmountTaxed":"NONE","note":"","unit":"WEEK","lineItems":[{"item":"Charter Fee","quantity":1,"unitPrice":665500,"amount":665500}],"total":665500,"subTotal":665500,"totalTax":0},"inclusionZones":[{"label":"Grenada","type":"Sovereign country","category":["North America","Caribbean","Grenada"],"coordinates":[-61.682201888919685,12.11725043947459],"bbox":[-61.782177734375,12.008447265624994,-61.60703124999999,12.237011718749997]},{"label":"Martinique","type":"Geo unit","category":["North America","Caribbean","Martinique"],"coordinates":[-61.02100535627902,14.658030130120972],"bbox":[-61.2197265625,14.42626953125,-60.82626953124999,14.875292968750003]},{"label":"Saint Vincent","type":"Custom Area","category":["West Indies","Saint Vincent"],"coordinates":[-61.20720374257252,13.27021162342139],"bbox":[-61.29509070648227,13.180277015184123,-61.11931677866276,13.360141087929032]},{"label":"Guadeloupe","type":"Geo unit","category":["North America","Caribbean","Guadeloupe"],"coordinates":[-61.47423111619004,16.176202525655302],"bbox":[-61.794091796874994,15.886035156250003,-61.172607421875,16.506640625000003]},{"label":"Antigua","type":"Custom Area","category":["West Indies","Antigua"],"coordinates":[-61.775929328510024,17.04059813621117],"bbox":[-61.865400516588366,16.95066275737162,-61.68645814043168,17.13052683011653]},{"label":"St-Martin","type":"Dependency","category":["North America","Caribbean","St-Martin"],"coordinates":[-63.05972851444495,18.088886109462265],"bbox":[-63.123046875,18.06894531249999,-63.009423828124994,18.11533203124999]}],"exclusionZones":[],"petsAllowed":false},{"name":"02.03 - 31.10","effectiveDates":[{"from":"2024-03-02T00:00:00.000Z","to":"2024-10-31T23:59:59.999Z"},{"from":"2025-03-02T00:00:00.000Z","to":"2025-10-31T23:59:59.999Z"},{"from":"2026-03-02T00:00:00.000Z","to":"2026-10-31T23:59:59.999Z"}],"pricing":{"currency":"EUR","charterFee":434800,"inputAmountTaxed":"NONE","note":"","unit":"WEEK","lineItems":[{"item":"Charter Fee","quantity":1,"unitPrice":434800,"amount":434800}],"total":434800,"subTotal":434800,"totalTax":0},"inclusionZones":[{"label":"Grenada","type":"Sovereign country","category":["North America","Caribbean","Grenada"],"coordinates":[-61.682201888919685,12.11725043947459],"bbox":[-61.782177734375,12.008447265624994,-61.60703124999999,12.237011718749997]},{"label":"Martinique","type":"Geo unit","category":["North America","Caribbean","Martinique"],"coordinates":[-61.02100535627902,14.658030130120972],"bbox":[-61.2197265625,14.42626953125,-60.82626953124999,14.875292968750003]},{"label":"Saint Vincent","type":"Custom Area","category":["West Indies","Saint Vincent"],"coordinates":[-61.20720374257252,13.27021162342139],"bbox":[-61.29509070648227,13.180277015184123,-61.11931677866276,13.360141087929032]},{"label":"Guadeloupe","type":"Geo unit","category":["North America","Caribbean","Guadeloupe"],"coordinates":[-61.47423111619004,16.176202525655302],"bbox":[-61.794091796874994,15.886035156250003,-61.172607421875,16.506640625000003]},{"label":"Antigua","type":"Custom Area","category":["West Indies","Antigua"],"coordinates":[-61.775929328510024,17.04059813621117],"bbox":[-61.865400516588366,16.95066275737162,-61.68645814043168,17.13052683011653]},{"label":"St-Martin","type":"Dependency","category":["North America","Caribbean","St-Martin"],"coordinates":[-63.05972851444495,18.088886109462265],"bbox":[-63.123046875,18.06894531249999,-63.009423828124994,18.11533203124999]}],"exclusionZones":[],"petsAllowed":false}]}}