{"lastModified":1764174170269,"uri":"c::21836669044::vessel::49e9ea50-564a-11ef-a8a2-ed728478bcf0","yachtType":["Motor"],"description":"Summer/Winter Operating Area: United States of America - New England, United States of America- North East\n\nSEA AMBER is a 18.90m / 62ft Luxury Motor Yacht built in 2017 by Sea Ray and later underwent a refit in 2023. Sleeping 4 guests in 2 cabins with a crew of 2. Cruising at 16.00 kn/ph with a top speed of 24.00 kn/ph. The guest cabins comprise two double cabins with queen beds and en-suite bathroom facilities.","blueprint":{"name":"SEA AMBER","images":["/media/media::image::a::vessel::49e9ea50-564a-11ef-a8a2-ed728478bcf0::assets::47b83300-8d66-11f0-bad9-7fbde39b26b2/{imageVariant}","/media/media::image::a::vessel::49e9ea50-564a-11ef-a8a2-ed728478bcf0::assets::47b9b9a0-8d66-11f0-bad9-7fbde39b26b2/{imageVariant}","/media/media::image::a::vessel::49e9ea50-564a-11ef-a8a2-ed728478bcf0::assets::47b8cf41-8d66-11f0-bad9-7fbde39b26b2/{imageVariant}","/media/media::image::a::vessel::49e9ea50-564a-11ef-a8a2-ed728478bcf0::assets::47c3f2d0-8d66-11f0-bada-7fbde39b26b2/{imageVariant}","/media/media::image::a::vessel::49e9ea50-564a-11ef-a8a2-ed728478bcf0::assets::47c57970-8d66-11f0-bada-7fbde39b26b2/{imageVariant}","/media/media::image::a::vessel::49e9ea50-564a-11ef-a8a2-ed728478bcf0::assets::47c4dd30-8d66-11f0-bada-7fbde39b26b2/{imageVariant}","/media/media::image::a::vessel::49e9ea50-564a-11ef-a8a2-ed728478bcf0::assets::47c5a080-8d66-11f0-bada-7fbde39b26b2/{imageVariant}","/media/media::image::a::vessel::49e9ea50-564a-11ef-a8a2-ed728478bcf0::assets::47c4b620-8d66-11f0-bada-7fbde39b26b2/{imageVariant}","/media/media::image::a::vessel::49e9ea50-564a-11ef-a8a2-ed728478bcf0::assets::47b8cf40-8d66-11f0-bad9-7fbde39b26b2/{imageVariant}","/media/media::image::a::vessel::49e9ea50-564a-11ef-a8a2-ed728478bcf0::assets::47c21e10-8d66-11f0-bada-7fbde39b26b2/{imageVariant}","/media/media::image::a::vessel::49e9ea50-564a-11ef-a8a2-ed728478bcf0::assets::47c5c790-8d66-11f0-bada-7fbde39b26b2/{imageVariant}","/media/media::image::a::vessel::49e9ea50-564a-11ef-a8a2-ed728478bcf0::assets::47b94470-8d66-11f0-bad9-7fbde39b26b2/{imageVariant}","/media/media::image::a::vessel::49e9ea50-564a-11ef-a8a2-ed728478bcf0::assets::47c55260-8d66-11f0-bada-7fbde39b26b2/{imageVariant}","/media/media::image::a::vessel::49e9ea50-564a-11ef-a8a2-ed728478bcf0::assets::47b99290-8d66-11f0-bada-7fbde39b26b2/{imageVariant}"],"make":"Sea Ray","model":"510 Fly","maxCrew":2,"sleeps":4,"basePort":{"uri":"a::place::efcb9adc-b3ed-11ed-b611-325096b39f47","name":"Long Island","coordinates":{"latitude":40.79002295,"longitude":-73.13603274},"country":"United States"},"cruisingCapacity":"","builtYear":2017,"refitYear":2023,"topSpeed":24,"cruiseSpeed":16,"cabinLayout":[{"label":"Double Cabins","value":"2"}],"cabins":2,"bathrooms":2,"length":18.9,"beam":5.8,"draft":1.5,"hullConstruction":"","amenities":[{"label":"Air Conditioning"},{"label":"Sun Awning"},{"label":"Deck Shower"},{"label":"Bimini"},{"label":"Hair Dryers"},{"label":"Wheelchair Access"},{"label":"Stabilizers"},{"label":"Dine In"},{"label":"BBQ"}],"toys":[{"label":"Water Skis - Adult"},{"label":"Water Skis - Kids"},{"label":"Kneeboard"},{"label":"Tube"},{"label":"Scurfer"},{"label":"Wakeboards"},{"label":"Floating Mats"},{"label":"Fishing Gear"},{"label":"Stand-up Paddle Board"},{"label":"Dinghy"}],"entertainment":["Salon TV/DVD","Salon Stereo/Music","Board Games","Sat TV"],"tenders":["16ft Walker Bay 40 hp"]},"crew":[],"pricing":{"dayPricingFrom":{"currency":"USD","price":82000,"displayCurrency":"USD","displayPrice":82000,"unit":"HOUR"},"dayPricingTo":{"currency":"USD","price":650000,"displayCurrency":"USD","displayPrice":650000,"unit":"DAY"},"weekPricingFrom":{"currency":"USD","price":4150000,"displayCurrency":"USD","displayPrice":4150000,"unit":"WEEK"},"weekPricingTo":{"currency":"USD","price":4150000,"displayCurrency":"USD","displayPrice":4150000,"unit":"WEEK"},"pricingInfo":[{"name":"Summer/Winter: North America - Weekly Rate","effectiveDates":[{"from":"2026-01-01T00:00:00.000Z","to":"2026-12-01T23:59:59.999Z"},{"from":"2027-01-01T00:00:00.000Z","to":"2027-12-01T23:59:59.999Z"},{"from":"2028-01-01T00:00:00.000Z","to":"2028-12-01T23:59:59.999Z"}],"pricing":{"currency":"USD","charterFee":4150000,"inputAmountTaxed":"EXCLUSIVE","note":"","unit":"WEEK","lineItems":[{"item":"Charter Fee","quantity":1,"unitPrice":4150000,"amount":4150000,"conditions":"VAT & APA Excluded"}],"total":4150000,"subTotal":4150000,"totalTax":0},"inclusionZones":[{"label":"United States of America","type":"Country","category":["North America","Northern America","United States of America"],"coordinates":[-52.64727122207621,46.84073876556497],"bbox":[-179.1435033839999,18.906117143000074,179.78093509200005,71.41250234600005]},{"label":"United States of America","type":"Geo subunit","category":["North America","Northern America","United States of America"],"coordinates":[-96.3420908403651,38.73256771297787],"bbox":[-124.7099609375,24.54233398437499,-66.98701171875,49.3696777343751]},{"label":"Connecticut, US, United States","type":"State","category":["Connecticut"],"coordinates":[-72.72549337781919,41.62693724196049],"bbox":[-73.72301474458291,40.99186046560217,-71.79579299137774,42.05556778157003]},{"label":"Maine, US, United States","type":"State","category":["Maine"],"coordinates":[-69.18910809526241,45.33339970652574],"bbox":[-71.08454906776156,43.07003437300324,-66.98702205598455,47.4629947456595]},{"label":"Massachusetts, US, United States","type":"State","category":["Massachusetts"],"coordinates":[-71.56845108942264,42.14243561026627],"bbox":[-73.50728719729106,41.24946789730413,-69.93384101605304,42.881563906829285]},{"label":"New Hampshire, US, United States","type":"State","category":["New Hampshire"],"coordinates":[-71.57936199287953,43.68840417648867],"bbox":[-72.55280595970862,42.702486751560514,-70.73309641763596,45.294007846512955]},{"label":"Rhode Island, US, United States","type":"State","category":["Rhode Island"],"coordinates":[-71.55838559818731,41.68222513913608],"bbox":[-71.84235305174761,41.33090955080149,-71.23205151479458,42.01686294610917]},{"label":"Vermont, US, United States","type":"State","category":["Vermont"],"coordinates":[-72.66637672106614,44.07599171704113],"bbox":[-73.42613118833583,42.730315121762715,-71.51022535353107,45.007561302382754]}],"exclusionZones":[],"petsAllowed":false},{"name":"Summer/Winter: North America - Day Charter","effectiveDates":[{"from":"2025-01-01T00:00:00.000Z","to":"2025-12-31T23:59:59.999Z"},{"from":"2026-01-01T00:00:00.000Z","to":"2026-12-31T23:59:59.999Z"},{"from":"2027-01-01T00:00:00.000Z","to":"2027-12-31T23:59:59.999Z"}],"pricing":{"currency":"USD","charterFee":82000,"inputAmountTaxed":"NONE","note":"","unit":"HOUR","lineItems":[{"item":"Charter Fee","quantity":1,"unitPrice":82000,"amount":82000,"conditions":"Per Hour"}],"total":82000,"subTotal":82000,"totalTax":0},"inclusionZones":[{"label":"New York, United States of America","type":"Custom Area","category":["New York"],"coordinates":[-73.404049,41.254167],"bbox":[-74.091431,40.566667,-72.716667,41.941667]},{"label":"United States of America","type":"Country","category":["North America","Northern America","United States of America"],"coordinates":[-52.64727122207621,46.84073876556497],"bbox":[-179.1435033839999,18.906117143000074,179.78093509200005,71.41250234600005]},{"label":"United States of America","type":"Geo subunit","category":["North America","Northern America","United States of America"],"coordinates":[-96.3420908403651,38.73256771297787],"bbox":[-124.7099609375,24.54233398437499,-66.98701171875,49.3696777343751]},{"label":"Connecticut, US, United States","type":"State","category":["Connecticut"],"coordinates":[-72.72549337781919,41.62693724196049],"bbox":[-73.72301474458291,40.99186046560217,-71.79579299137774,42.05556778157003]},{"label":"Maine, US, United States","type":"State","category":["Maine"],"coordinates":[-69.18910809526241,45.33339970652574],"bbox":[-71.08454906776156,43.07003437300324,-66.98702205598455,47.4629947456595]},{"label":"Massachusetts, US, United States","type":"State","category":["Massachusetts"],"coordinates":[-71.56845108942264,42.14243561026627],"bbox":[-73.50728719729106,41.24946789730413,-69.93384101605304,42.881563906829285]},{"label":"New Hampshire, US, United States","type":"State","category":["New Hampshire"],"coordinates":[-71.57936199287953,43.68840417648867],"bbox":[-72.55280595970862,42.702486751560514,-70.73309641763596,45.294007846512955]},{"label":"Rhode Island, US, United States","type":"State","category":["Rhode Island"],"coordinates":[-71.55838559818731,41.68222513913608],"bbox":[-71.84235305174761,41.33090955080149,-71.23205151479458,42.01686294610917]},{"label":"Vermont, US, United States","type":"State","category":["Vermont"],"coordinates":[-72.66637672106614,44.07599171704113],"bbox":[-73.42613118833583,42.730315121762715,-71.51022535353107,45.007561302382754]}],"exclusionZones":[],"petsAllowed":false},{"name":"Summer/Winter: North America - Day Charter","effectiveDates":[{"from":"2025-01-01T00:00:00.000Z","to":"2025-12-31T23:59:59.999Z"},{"from":"2026-01-01T00:00:00.000Z","to":"2026-12-31T23:59:59.999Z"},{"from":"2027-01-01T00:00:00.000Z","to":"2027-12-31T23:59:59.999Z"}],"pricing":{"currency":"USD","charterFee":650000,"inputAmountTaxed":"NONE","note":"","unit":"DAY","lineItems":[{"item":"Charter Fee","quantity":1,"unitPrice":650000,"amount":650000,"conditions":"24 Hours"}],"total":650000,"subTotal":650000,"totalTax":0},"inclusionZones":[{"label":"New York, United States of America","type":"Custom Area","category":["New York"],"coordinates":[-73.404049,41.254167],"bbox":[-74.091431,40.566667,-72.716667,41.941667]},{"label":"United States of America","type":"Country","category":["North America","Northern America","United States of America"],"coordinates":[-52.64727122207621,46.84073876556497],"bbox":[-179.1435033839999,18.906117143000074,179.78093509200005,71.41250234600005]},{"label":"United States of America","type":"Geo subunit","category":["North America","Northern America","United States of America"],"coordinates":[-96.3420908403651,38.73256771297787],"bbox":[-124.7099609375,24.54233398437499,-66.98701171875,49.3696777343751]},{"label":"Connecticut, US, United States","type":"State","category":["Connecticut"],"coordinates":[-72.72549337781919,41.62693724196049],"bbox":[-73.72301474458291,40.99186046560217,-71.79579299137774,42.05556778157003]},{"label":"Maine, US, United States","type":"State","category":["Maine"],"coordinates":[-69.18910809526241,45.33339970652574],"bbox":[-71.08454906776156,43.07003437300324,-66.98702205598455,47.4629947456595]},{"label":"Massachusetts, US, United States","type":"State","category":["Massachusetts"],"coordinates":[-71.56845108942264,42.14243561026627],"bbox":[-73.50728719729106,41.24946789730413,-69.93384101605304,42.881563906829285]},{"label":"New Hampshire, US, United States","type":"State","category":["New Hampshire"],"coordinates":[-71.57936199287953,43.68840417648867],"bbox":[-72.55280595970862,42.702486751560514,-70.73309641763596,45.294007846512955]},{"label":"Rhode Island, US, United States","type":"State","category":["Rhode Island"],"coordinates":[-71.55838559818731,41.68222513913608],"bbox":[-71.84235305174761,41.33090955080149,-71.23205151479458,42.01686294610917]},{"label":"Vermont, US, United States","type":"State","category":["Vermont"],"coordinates":[-72.66637672106614,44.07599171704113],"bbox":[-73.42613118833583,42.730315121762715,-71.51022535353107,45.007561302382754]}],"exclusionZones":[],"petsAllowed":false}]}}