{"lastModified":1766061943752,"uri":"c::7819256862::vessel::aa909db0-db7b-11f0-b958-13ce975d99cf","yachtType":["Motor"],"description":"Summer Operating Area: Naples/Sicily, Riviera/Corsica/Sardinia, Spain/Balearics, French Polynesia\nWinter Operating Area: Caribbean Virgin Islands (US/BVI), Bahamas, Caribbean Leewards, Caribbean Windwards\n\nYCM FIFTY (former High Occupancy) is a 50.29m / 165ft Luxury Motor Superyacht built in 1989 by Oceanfast and later underwent a refit in 2024. Sleeping 12 guests in 6 cabins and with a crew of 9. Cruising at 12.00 kn/ph with a top speed of 30.00 kn/ph. The guest cabins comprise 3 cabins with a king size bed, and 3 cabins with a queen size bed, all with en-suite bathroom facilities.\n","blueprint":{"name":"YCM FIFTY","images":["/media/media::image::a::vessel::aa909db0-db7b-11f0-b958-13ce975d99cf::assets::0baab190-dba8-11f0-bd0d-270567f7c91f/{imageVariant}","/media/media::image::a::vessel::aa909db0-db7b-11f0-b958-13ce975d99cf::assets::0bab4dd0-dba8-11f0-bd0d-270567f7c91f/{imageVariant}","/media/media::image::a::vessel::aa909db0-db7b-11f0-b958-13ce975d99cf::assets::0bab9bf0-dba8-11f0-bd0d-270567f7c91f/{imageVariant}","/media/media::image::a::vessel::aa909db0-db7b-11f0-b958-13ce975d99cf::assets::0bab4dd2-dba8-11f0-bd0d-270567f7c91f/{imageVariant}","/media/media::image::a::vessel::aa909db0-db7b-11f0-b958-13ce975d99cf::assets::0bac3831-dba8-11f0-bd0d-270567f7c91f/{imageVariant}","/media/media::image::a::vessel::aa909db0-db7b-11f0-b958-13ce975d99cf::assets::0bac3830-dba8-11f0-bd0d-270567f7c91f/{imageVariant}","/media/media::image::a::vessel::aa909db0-db7b-11f0-b958-13ce975d99cf::assets::0baad8a0-dba8-11f0-bd0d-270567f7c91f/{imageVariant}","/media/media::image::c::7819256862::vessel::aa909db0-db7b-11f0-b958-13ce975d99cf::assets::5a455a00-dc0f-11f0-8492-8159f2d09241/{imageVariant}","/media/media::image::c::7819256862::vessel::aa909db0-db7b-11f0-b958-13ce975d99cf::assets::5a438540-dc0f-11f0-8492-8159f2d09241/{imageVariant}","/media/media::image::a::vessel::aa909db0-db7b-11f0-b958-13ce975d99cf::assets::0baaffb0-dba8-11f0-bd0d-270567f7c91f/{imageVariant}","/media/media::image::c::7819256862::vessel::aa909db0-db7b-11f0-b958-13ce975d99cf::assets::5a7ce4c0-dc0f-11f0-8492-8159f2d09241/{imageVariant}","/media/media::image::a::vessel::aa909db0-db7b-11f0-b958-13ce975d99cf::assets::0babea10-dba8-11f0-bd0d-270567f7c91f/{imageVariant}","/media/media::image::a::vessel::aa909db0-db7b-11f0-b958-13ce975d99cf::assets::0baa1550-dba8-11f0-bd0d-270567f7c91f/{imageVariant}","/media/media::image::a::vessel::aa909db0-db7b-11f0-b958-13ce975d99cf::assets::0bab9bf1-dba8-11f0-bd0d-270567f7c91f/{imageVariant}","/media/media::image::a::vessel::aa909db0-db7b-11f0-b958-13ce975d99cf::assets::0bab4dd1-dba8-11f0-bd0d-270567f7c91f/{imageVariant}","/media/media::image::a::vessel::aa909db0-db7b-11f0-b958-13ce975d99cf::assets::0bc2a660-dba8-11f0-bd0d-270567f7c91f/{imageVariant}","/media/media::image::c::7819256862::vessel::aa909db0-db7b-11f0-b958-13ce975d99cf::assets::5a464460-dc0f-11f0-8492-8159f2d09241/{imageVariant}","/media/media::image::c::7819256862::vessel::aa909db0-db7b-11f0-b958-13ce975d99cf::assets::5a455a01-dc0f-11f0-8492-8159f2d09241/{imageVariant}","/media/media::image::a::vessel::aa909db0-db7b-11f0-b958-13ce975d99cf::assets::0babc300-dba8-11f0-bd0d-270567f7c91f/{imageVariant}"],"make":"Oceanfast","maxCrew":9,"sleeps":12,"basePort":{"uri":"a::place::103e7ea6-b3ee-11ed-831e-325096b39f47","name":"Saint Martin","coordinates":{"latitude":18.07160506,"longitude":-63.05194744},"country":"Overseas France"},"builtYear":1989,"refitYear":2024,"topSpeed":30,"cruiseSpeed":12,"cabinLayout":[{"label":"King Cabins","value":"3"},{"label":"Queen Cabins","value":"3"}],"cabins":6,"bathrooms":6,"length":50.29,"beam":9.75,"draft":1.55,"hullType":"","engines":"3 x MTU (waterjet propulsion)","amenities":[{"label":"Air Conditioning"},{"label":"Jacuzzi"},{"label":"Deck Shower"},{"label":"Ice Maker"},{"label":"BBQ"},{"label":"Children Allowed"}],"toys":[{"label":"Dinghy"},{"label":"Slide"},{"label":"Snorkel Gear"},{"label":"SU Paddle Boards","quantity":"4"},{"label":"Boarding Ladder "},{"label":"Water Skis Adult","quantity":"1"},{"label":"Fishing Gear"},{"label":"Sea Bobs"}],"entertainment":["Salon Stereo","Salon TV","Sat TV","Onboard WIFI"]},"crew":[],"pricing":{"weekPricingFrom":{"currency":"EUR","price":15000000,"displayCurrency":"EUR","displayPrice":15000000,"unit":"WEEK"},"weekPricingTo":{"currency":"EUR","price":15000000,"displayCurrency":"EUR","displayPrice":15000000,"unit":"WEEK"},"pricingInfo":[{"name":"Summer: Mediterranean & South Pacific - Weekly Rate","effectiveDates":[{"from":"2026-05-01T00:00:00.000Z","to":"2026-09-30T23:59:59.999Z"},{"from":"2027-05-01T00:00:00.000Z","to":"2027-09-30T23:59:59.999Z"},{"from":"2028-05-01T00:00:00.000Z","to":"2028-09-30T23:59:59.999Z"}],"pricing":{"currency":"EUR","charterFee":15000000,"inputAmountTaxed":"EXCLUSIVE","note":"","unit":"WEEK","lineItems":[{"item":"Charter Fee","quantity":1,"unitPrice":15000000,"amount":15000000,"conditions":"VAT & APA Excluded"}],"total":15000000,"subTotal":15000000,"totalTax":0},"inclusionZones":[{"label":"Naples, Campania, Italy","type":"Custom Area","category":["Naples"],"coordinates":[14.5625,40.9125],"bbox":[14.025,40.683333,15.1,41.141667]},{"label":"Sicily","type":"Geo subunit","category":["Europe","Southern Europe","Sicily"],"coordinates":[14.155397130095018,37.59291213666052],"bbox":[12.435546875,36.687841796875,15.634667968750023,38.2958984375]},{"label":"France","type":"Country","category":["Europe","Western Europe","France"],"coordinates":[-3.676762491181631,13.257370810531999],"bbox":[-61.79784094999991,-21.37078215899993,55.854502800000034,51.08754088371883]},{"label":"Corsica","type":"Geo subunit","category":["Europe","Southern Europe","Corsica"],"coordinates":[9.104917129771797,42.161865413836736],"bbox":[8.565625000000011,41.384912109374994,9.556445312500017,43.021484375]},{"label":"Sardinia","type":"Geo subunit","category":["Europe","Southern Europe","Sardinia"],"coordinates":[8.96574354539669,40.12242872762209],"bbox":[8.180859375000011,38.90966796875,9.805273437500006,41.257080078125]},{"label":"Spain","type":"Sovereign country","category":["Europe","Southern Europe","Spain"],"coordinates":[-7.17445166576848,36.8523911214717],"bbox":[-18.167225714999915,27.642238674000055,4.337087436000047,43.79344310100004]},{"label":"Balearic Is.","type":"Geo subunit","category":["Europe","Southern Europe","Balearic Is."],"coordinates":[2.7062917614011006,39.434712886284295],"bbox":[1.2233398437500114,38.658837890624994,4.322070312500017,40.075097656249994]},{"label":"Papeete, French Polynesia","type":"Custom Area","category":["Papeete"],"coordinates":[-149.57083350000002,-17.579167],"bbox":[-149.625,-17.641667,-149.516667,-17.516667]}],"exclusionZones":[],"petsAllowed":false},{"name":"Winter: Caribbean & Bahamas - Weekly Rate","effectiveDates":[{"from":"2025-10-01T00:00:00.000Z","to":"2026-04-30T23:59:59.999Z"},{"from":"2026-10-01T00:00:00.000Z","to":"2027-04-30T23:59:59.999Z"},{"from":"2027-10-01T00:00:00.000Z","to":"2028-04-30T23:59:59.999Z"}],"pricing":{"currency":"USD","charterFee":15000000,"inputAmountTaxed":"EXCLUSIVE","note":"","unit":"WEEK","lineItems":[{"item":"Charter Fee","quantity":1,"unitPrice":15000000,"amount":15000000,"conditions":"VAT & APA Excluded"}],"total":15000000,"subTotal":15000000,"totalTax":0},"inclusionZones":[{"label":"U.S. Virgin Is.","type":"Dependency","category":["North America","Caribbean","U.S. Virgin Is."],"coordinates":[-64.79221690684143,18.050874527948764],"bbox":[-65.0236328125,17.701708984375003,-64.58046875,18.385205078124997]},{"label":"British Virgin Is.","type":"Dependency","category":["North America","Caribbean","British Virgin Is."],"coordinates":[-64.45080373172777,18.568736231458896],"bbox":[-64.69511718749999,18.399121093749997,-64.273583984375,18.752685546875]},{"label":"Bahamas","type":"Sovereign country","category":["North America","Caribbean","Bahamas"],"coordinates":[-75.95477530284326,23.98498842185528],"bbox":[-78.98564453124999,20.937402343749994,-72.747265625,26.940087890624994]},{"label":"Anguilla","type":"Dependency","category":["North America","Caribbean","Anguilla"],"coordinates":[-63.06498926535688,18.22395950228264],"bbox":[-63.16000976562499,18.17138671875,-62.97958984374999,18.269726562499997]},{"label":"Antigua and Barb.","type":"Sovereign country","category":["North America","Caribbean","Antigua and Barb."],"coordinates":[-61.93165875524458,17.253271156347328],"bbox":[-62.34826033833981,16.931969600900484,-61.66759192599994,17.727687893000052]},{"label":"Guadeloupe","type":"Geo unit","category":["North America","Caribbean","Guadeloupe"],"coordinates":[-61.47423111619004,16.176202525655302],"bbox":[-61.794091796874994,15.886035156250003,-61.172607421875,16.506640625000003]},{"label":"Montserrat","type":"Dependency","category":["North America","Caribbean","Montserrat"],"coordinates":[-62.185185456249805,16.739414055259036],"bbox":[-62.223046874999994,16.681201171875003,-62.1484375,16.8095703125]},{"label":"St. Kitts and Nevis","type":"Sovereign country","category":["North America","Caribbean","St. Kitts and Nevis"],"coordinates":[-62.68360357065519,17.252615660502208],"bbox":[-62.840478515624994,17.1005859375,-62.5322265625,17.402587890625]},{"label":"St-Barthélemy","type":"Dependency","category":["North America","Caribbean","St-Barthélemy"],"coordinates":[-62.84067778842013,17.898804511167977],"bbox":[-62.875439453125,17.875195312499997,-62.799707031249994,17.922265624999994]},{"label":"St-Martin","type":"Dependency","category":["North America","Caribbean","St-Martin"],"coordinates":[-63.05972851444495,18.088886109462265],"bbox":[-63.123046875,18.06894531249999,-63.009423828124994,18.11533203124999]},{"label":"Dominica","type":"Sovereign country","category":["North America","Caribbean","Dominica"],"coordinates":[-61.35772599871661,15.439470202865927],"bbox":[-61.48115234375,15.227294921875,-61.25107421874999,15.633105468750003]},{"label":"Martinique","type":"Geo unit","category":["North America","Caribbean","Martinique"],"coordinates":[-61.02100535627902,14.658030130120972],"bbox":[-61.2197265625,14.42626953125,-60.82626953124999,14.875292968750003]},{"label":"Saint Lucia","type":"Sovereign country","category":["North America","Caribbean","Saint Lucia"],"coordinates":[-60.96969922527705,13.894794814534256],"bbox":[-61.073144531249994,13.717578125000003,-60.88676757812499,14.093359374999991]},{"label":"St. Vin. and Gren.","type":"Sovereign country","category":["North America","Caribbean","St. Vin. and Gren."],"coordinates":[-61.23926839273057,13.08539492811089],"bbox":[-61.353515625,12.694726562499994,-61.1240234375,13.358740234374991]},{"label":"Grenada","type":"Sovereign country","category":["North America","Caribbean","Grenada"],"coordinates":[-61.682201888919685,12.11725043947459],"bbox":[-61.782177734375,12.008447265624994,-61.60703124999999,12.237011718749997]},{"label":"Barbados","type":"Sovereign country","category":["North America","Caribbean","Barbados"],"coordinates":[-59.55979700211572,13.181454282224829],"bbox":[-59.6466796875,13.062207031249997,-59.427636718749994,13.317675781250003]},{"label":"Trinidad and Tobago","type":"Sovereign country","category":["North America","Caribbean","Trinidad and Tobago"],"coordinates":[-61.218253968015965,10.583083192416137],"bbox":[-61.92870032499991,10.04205963700008,-60.52208411399994,11.351060289000088]}],"exclusionZones":[],"petsAllowed":false}]}}