{"lastModified":1761906807114,"uri":"c::8573887147::vessel::d5cc4fbb-fe8c-11ed-889f-43d4bb723744","yachtType":["Gulet","Sailing"],"description":"Operating Area: Greece\n\nPANORAMA is a 54.00m / 177ft Gulet Superyacht built in 1993 by Custom. Sleeping 49 guests in 24 cabins and with a crew of 17. Cruising at 10.00 kn/ph.","blueprint":{"name":"PANORAMA","images":["/media/media::image::c::8573887147::vessel::d5cc4fbb-fe8c-11ed-889f-43d4bb723744::assets::97ec0540-2ccd-11ef-a2fd-e99020cca074.jpeg/{imageVariant}","/media/media::image::c::8573887147::vessel::d5cc4fbb-fe8c-11ed-889f-43d4bb723744::assets::97ebb720-2ccd-11ef-a2fd-e99020cca074.jpeg/{imageVariant}","/media/media::image::c::8573887147::vessel::d5cc4fbb-fe8c-11ed-889f-43d4bb723744::assets::97e8f800-2ccd-11ef-a2fd-e99020cca074.jpeg/{imageVariant}","/media/media::image::c::8573887147::vessel::d5cc4fbb-fe8c-11ed-889f-43d4bb723744::assets::97ea5790-2ccd-11ef-a2fd-e99020cca074.jpeg/{imageVariant}","/media/media::image::c::8573887147::vessel::d5cc4fbb-fe8c-11ed-889f-43d4bb723744::assets::97ea0970-2ccd-11ef-a2fd-e99020cca074.jpeg/{imageVariant}","/media/media::image::c::8573887147::vessel::d5cc4fbb-fe8c-11ed-889f-43d4bb723744::assets::97eb9010-2ccd-11ef-a2fd-e99020cca074.jpeg/{imageVariant}","/media/media::image::c::8573887147::vessel::d5cc4fbb-fe8c-11ed-889f-43d4bb723744::assets::97e99440-2ccd-11ef-a2fd-e99020cca074.jpeg/{imageVariant}","/media/media::image::c::8573887147::vessel::d5cc4fbb-fe8c-11ed-889f-43d4bb723744::assets::97e9e260-2ccd-11ef-a2fd-e99020cca074.jpeg/{imageVariant}","/media/media::image::c::8573887147::vessel::d5cc4fbb-fe8c-11ed-889f-43d4bb723744::assets::97eaccc0-2ccd-11ef-a2fd-e99020cca074.jpeg/{imageVariant}","/media/media::image::c::8573887147::vessel::d5cc4fbb-fe8c-11ed-889f-43d4bb723744::assets::97eaa5b0-2ccd-11ef-a2fd-e99020cca074.jpeg/{imageVariant}","/media/media::image::c::8573887147::vessel::d5cc4fbb-fe8c-11ed-889f-43d4bb723744::assets::97eb6900-2ccd-11ef-a2fd-e99020cca074.jpeg/{imageVariant}","/media/media::image::c::8573887147::vessel::d5cc4fbb-fe8c-11ed-889f-43d4bb723744::assets::97eb1ae0-2ccd-11ef-a2fd-e99020cca074.jpeg/{imageVariant}"],"make":"Custom","model":"","maxCrew":17,"sleeps":49,"basePort":{"uri":"a::place::5e595eb8-b3ed-11ed-be02-325096b39f47","name":"Athens","coordinates":{"latitude":37.986174,"longitude":23.7268443},"country":"Greece"},"builtYear":1993,"architect":"","refitYear":"","topSpeed":"","cruiseSpeed":10,"fuelCapacity":"","cabinLayout":[],"cabins":24,"bathrooms":25,"decks":"","length":54,"beam":12,"draft":5,"hullType":"","superStructure":[],"amenities":[{"label":"Air Conditioning"},{"label":"Salon Stereo"},{"label":"Salon TV"},{"label":"Satellite TV"},{"label":"Deck Shower"},{"label":"BBQ"},{"label":"Hairdryers"},{"label":"Children Allowed (Minimum Age:6 years old)"},{"label":"Onboard WIFI"},{"label":"Re-usable water bottles"}],"toys":[{"label":"Dinghy (12 Pax)"},{"label":"Snorkel Gear"},{"label":"Kayak 1 Pax","quantity":"1"},{"label":"SU Paddle Boards"},{"label":"Fishing Gear"}],"entertainment":["Onboard WIFI","Salon Stereo","Salon TV","Satellite TV"]},"crew":[],"pricing":{"weekPricingFrom":{"currency":"EUR","price":10700000,"displayCurrency":"EUR","displayPrice":10700000,"unit":"WEEK"},"weekPricingTo":{"currency":"EUR","price":15550000,"displayCurrency":"EUR","displayPrice":15550000,"unit":"WEEK"},"pricingInfo":[{"name":"High Season","effectiveDates":[{"from":"2024-05-01T00:00:00.000Z","to":"2024-06-30T23:59:59.999Z"},{"from":"2025-05-01T00:00:00.000Z","to":"2025-06-30T23:59:59.999Z"},{"from":"2026-05-01T00:00:00.000Z","to":"2026-06-30T23:59:59.999Z"},{"from":"2024-09-01T00:00:00.000Z","to":"2024-09-30T23:59:59.999Z"},{"from":"2025-09-01T00:00:00.000Z","to":"2025-09-30T23:59:59.999Z"},{"from":"2026-09-01T00:00:00.000Z","to":"2026-09-30T23:59:59.999Z"}],"pricing":{"currency":"EUR","charterFee":15550000,"inputAmountTaxed":"EXCLUSIVE","note":"","unit":"WEEK","lineItems":[{"item":"Charter Fee","quantity":1,"unitPrice":15550000,"amount":15550000}],"total":15550000,"subTotal":15550000,"totalTax":0},"inclusionZones":[{"label":"Naples, Campania, Italy","type":"Custom Area","category":["Naples"],"coordinates":[14.5625,40.9125],"bbox":[14.025,40.683333,15.1,41.141667]},{"label":"Sicily","type":"Geo subunit","category":["Europe","Southern Europe","Sicily"],"coordinates":[14.155397130095018,37.59291213666052],"bbox":[12.435546875,36.687841796875,15.634667968750023,38.2958984375]},{"label":"Greece","type":"Sovereign country","category":["Europe","Southern Europe","Greece"],"coordinates":[24.261736188816826,38.42232351533858],"bbox":[19.646484375,34.934472656249994,28.231835937500023,41.743798828124994]},{"label":"Turkey","type":"Sovereign country","category":["Asia","Western Asia","Turkey"],"coordinates":[35.10531997715448,39.093802942376584],"bbox":[25.6689453125,35.831445312499994,44.81718750000002,42.09326171875]},{"label":"Croatia","type":"Sovereign country","category":["Europe","Southern Europe","Croatia"],"coordinates":[16.818610292079534,44.700266827856225],"bbox":[13.517187500000006,42.432910156249996,19.400976562500006,46.534619140625]}],"exclusionZones":[],"petsAllowed":false},{"name":"Mid Season","effectiveDates":[{"from":"2024-07-01T00:00:00.000Z","to":"2024-08-31T23:59:59.999Z"},{"from":"2025-07-01T00:00:00.000Z","to":"2025-08-31T23:59:59.999Z"},{"from":"2026-07-01T00:00:00.000Z","to":"2026-08-31T23:59:59.999Z"},{"from":"2024-10-01T00:00:00.000Z","to":"2024-10-31T23:59:59.999Z"},{"from":"2025-10-01T00:00:00.000Z","to":"2025-10-31T23:59:59.999Z"},{"from":"2026-10-01T00:00:00.000Z","to":"2026-10-31T23:59:59.999Z"}],"pricing":{"currency":"EUR","charterFee":11200000,"inputAmountTaxed":"EXCLUSIVE","note":"","unit":"WEEK","lineItems":[{"item":"Charter Fee","quantity":1,"unitPrice":11200000,"amount":11200000}],"total":11200000,"subTotal":11200000,"totalTax":0},"inclusionZones":[{"label":"Naples, Campania, Italy","type":"Custom Area","category":["Naples"],"coordinates":[14.5625,40.9125],"bbox":[14.025,40.683333,15.1,41.141667]},{"label":"Sicily","type":"Geo subunit","category":["Europe","Southern Europe","Sicily"],"coordinates":[14.155397130095018,37.59291213666052],"bbox":[12.435546875,36.687841796875,15.634667968750023,38.2958984375]},{"label":"Greece","type":"Sovereign country","category":["Europe","Southern Europe","Greece"],"coordinates":[24.261736188816826,38.42232351533858],"bbox":[19.646484375,34.934472656249994,28.231835937500023,41.743798828124994]},{"label":"Turkey","type":"Sovereign country","category":["Asia","Western Asia","Turkey"],"coordinates":[35.10531997715448,39.093802942376584],"bbox":[25.6689453125,35.831445312499994,44.81718750000002,42.09326171875]},{"label":"Croatia","type":"Sovereign country","category":["Europe","Southern Europe","Croatia"],"coordinates":[16.818610292079534,44.700266827856225],"bbox":[13.517187500000006,42.432910156249996,19.400976562500006,46.534619140625]}],"exclusionZones":[],"petsAllowed":false},{"name":"Low Season","effectiveDates":[{"from":"2024-01-11T00:00:00.000Z","to":"2025-04-30T23:59:59.999Z"},{"from":"2025-01-11T00:00:00.000Z","to":"2026-04-30T23:59:59.999Z"},{"from":"2026-01-11T00:00:00.000Z","to":"2027-04-30T23:59:59.999Z"}],"pricing":{"currency":"EUR","charterFee":10700000,"inputAmountTaxed":"EXCLUSIVE","note":"","unit":"WEEK","lineItems":[{"item":"Charter Fee","quantity":1,"unitPrice":10700000,"amount":10700000}],"total":10700000,"subTotal":10700000,"totalTax":0},"inclusionZones":[{"label":"U.S. Virgin Is.","type":"Dependency","category":["North America","Caribbean","U.S. Virgin Is."],"coordinates":[-64.79221690684143,18.050874527948764],"bbox":[-65.0236328125,17.701708984375003,-64.58046875,18.385205078124997]},{"label":"British Virgin Is.","type":"Dependency","category":["North America","Caribbean","British Virgin Is."],"coordinates":[-64.45080373172777,18.568736231458896],"bbox":[-64.69511718749999,18.399121093749997,-64.273583984375,18.752685546875]},{"label":"Anguilla","type":"Dependency","category":["North America","Caribbean","Anguilla"],"coordinates":[-63.06498926535688,18.22395950228264],"bbox":[-63.16000976562499,18.17138671875,-62.97958984374999,18.269726562499997]},{"label":"Antigua and Barb.","type":"Sovereign country","category":["North America","Caribbean","Antigua and Barb."],"coordinates":[-61.93165875524458,17.253271156347328],"bbox":[-62.34826033833981,16.931969600900484,-61.66759192599994,17.727687893000052]},{"label":"Guadeloupe","type":"Geo unit","category":["North America","Caribbean","Guadeloupe"],"coordinates":[-61.47423111619004,16.176202525655302],"bbox":[-61.794091796874994,15.886035156250003,-61.172607421875,16.506640625000003]},{"label":"Montserrat","type":"Dependency","category":["North America","Caribbean","Montserrat"],"coordinates":[-62.185185456249805,16.739414055259036],"bbox":[-62.223046874999994,16.681201171875003,-62.1484375,16.8095703125]},{"label":"St. Kitts and Nevis","type":"Sovereign country","category":["North America","Caribbean","St. Kitts and Nevis"],"coordinates":[-62.68360357065519,17.252615660502208],"bbox":[-62.840478515624994,17.1005859375,-62.5322265625,17.402587890625]},{"label":"St-Barthélemy","type":"Dependency","category":["North America","Caribbean","St-Barthélemy"],"coordinates":[-62.84067778842013,17.898804511167977],"bbox":[-62.875439453125,17.875195312499997,-62.799707031249994,17.922265624999994]},{"label":"St-Martin","type":"Dependency","category":["North America","Caribbean","St-Martin"],"coordinates":[-63.05972851444495,18.088886109462265],"bbox":[-63.123046875,18.06894531249999,-63.009423828124994,18.11533203124999]},{"label":"Martinique","type":"Geo unit","category":["North America","Caribbean","Martinique"],"coordinates":[-61.02100535627902,14.658030130120972],"bbox":[-61.2197265625,14.42626953125,-60.82626953124999,14.875292968750003]},{"label":"Dominica","type":"Sovereign country","category":["North America","Caribbean","Dominica"],"coordinates":[-61.35772599871661,15.439470202865927],"bbox":[-61.48115234375,15.227294921875,-61.25107421874999,15.633105468750003]},{"label":"Saint Lucia","type":"Sovereign country","category":["North America","Caribbean","Saint Lucia"],"coordinates":[-60.96969922527705,13.894794814534256],"bbox":[-61.073144531249994,13.717578125000003,-60.88676757812499,14.093359374999991]},{"label":"St. Vin. and Gren.","type":"Sovereign country","category":["North America","Caribbean","St. Vin. and Gren."],"coordinates":[-61.23926839273057,13.08539492811089],"bbox":[-61.353515625,12.694726562499994,-61.1240234375,13.358740234374991]},{"label":"Grenada","type":"Sovereign country","category":["North America","Caribbean","Grenada"],"coordinates":[-61.682201888919685,12.11725043947459],"bbox":[-61.782177734375,12.008447265624994,-61.60703124999999,12.237011718749997]},{"label":"Red Sea","type":"Custom Area","category":["Red Sea"],"coordinates":[38.85789028434827,20.05584289128848],"bbox":[33.82819909031414,12.461410223841455,43.48915978371221,28.13055715587025]},{"label":"United Arab Emirates","type":"Sovereign country","category":["Asia","Western Asia","United Arab Emirates"],"coordinates":[54.24583194309796,24.18786529531774],"bbox":[51.568359375,22.621484374999994,56.38798828125002,26.068164062499996]},{"label":"Canary Is.","type":"Geo subunit","category":["Africa","Southern Europe","Canary Is."],"coordinates":[-15.921748547823526,28.423036743604094],"bbox":[-18.160546874999994,27.646386718749994,-13.422949218749977,29.237207031249994]}],"exclusionZones":[],"petsAllowed":false}]}}